Index	Time [s]	Longitude [°]	Latitude [°]	Altitude	Roll [°]	Pitch [°]	Yaw [°]	X [m]	Y [m]	Z [m]
1	0	-116.6847222	32.72722222	34	-0.11536	-0.14832	295.76	-12989283.86	3859152.995	10.3632
2	4	-116.6847222	32.72722222	34	0.36255	-0.26917	295.25	-12989283.86	3859152.995	10.3632
3	8	-116.685	32.72722222	35	0.42297	-0.2417	297.27	-12989314.78	3859152.995	10.668
4	11	-116.685	32.72722222	35	0.0275	0.73608	295.88	-12989314.78	3859152.995	10.668
5	15	-116.685	32.72722222	35	0.18127	0.33508	294.53	-12989314.78	3859152.995	10.668
6	19	-116.6852778	32.72722222	36	0.39001	0.36804	308.05	-12989345.71	3859152.995	10.9728
7	23	-116.6852778	32.7275	36	0.2417	0.0275	334.3	-12989345.71	3859189.752	10.9728
8	27	-116.6852778	32.7275	36	0.14832	0.36804	3.6365	-12989345.71	3859189.752	10.9728
9	31	-116.6852778	32.7275	36	-0.4834	0.30762	18.82	-12989345.71	3859189.752	10.9728
10	35	-116.685	32.72777778	36	-0.42297	0.18127	25.933	-12989314.78	3859226.51	10.9728
11	39	-116.685	32.72777778	36	-0.39551	0.12085	25.67	-12989314.78	3859226.51	10.9728
12	43	-116.685	32.72777778	35	-0.32959	0.12085	25.906	-12989314.78	3859226.51	10.668
13	47	-116.685	32.72777778	35	-0.36255	0.12085	25.873	-12989314.78	3859226.51	10.668
14	51	-116.685	32.72777778	35	-0.32959	0.15381	25.845	-12989314.78	3859226.51	10.668
15	55	-116.685	32.72777778	35	-0.32959	0.12085	25.889	-12989314.78	3859226.51	10.668
16	59	-116.685	32.72777778	35	-0.36255	0.15381	25.856	-12989314.78	3859226.51	10.668
17	64	-116.685	32.72777778	34	-0.36804	0.1593	25.867	-12989314.78	3859226.51	10.3632
18	68	-116.685	32.72777778	34	-0.36255	0.12085	25.873	-12989314.78	3859226.51	10.3632
19	72	-116.685	32.72777778	34	-0.36255	0.15381	25.862	-12989314.78	3859226.51	10.3632
20	76	-116.685	32.72777778	34	-0.36255	0.14832	25.845	-12989314.78	3859226.51	10.3632
21	80	-116.685	32.72777778	35	-0.36255	0.12085	25.889	-12989314.78	3859226.51	10.668
22	84	-116.685	32.72777778	35	-0.35706	0.12085	25.862	-12989314.78	3859226.51	10.668
23	87	-116.685	32.72777778	35	-0.36255	0.15381	25.862	-12989314.78	3859226.51	10.668
24	91	-116.685	32.72777778	35	-0.32959	0.14832	25.845	-12989314.78	3859226.51	10.668
25	95	-116.685	32.72777778	35	-0.36804	0.1593	25.851	-12989314.78	3859226.51	10.668
26	99	-116.685	32.72777778	35	-0.36255	0.15381	25.818	-12989314.78	3859226.51	10.668
27	103	-116.685	32.72777778	35	-0.36804	0.0934	25.856	-12989314.78	3859226.51	10.668
28	107	-116.685	32.72777778	35	-0.33508	-0.34058	25.9	-12989314.78	3859226.51	10.668
29	111	-116.685	32.72777778	34	-0.34058	-0.46692	25.9	-12989314.78	3859226.51	10.3632
30	115	-116.685	32.72777778	35	-0.30212	-0.46143	25.917	-12989314.78	3859226.51	10.668
31	119	-116.685	32.72777778	35	-0.33508	-0.30762	25.906	-12989314.78	3859226.51	10.668
32	123	-116.685	32.72777778	34	-0.33508	-0.28015	25.9	-12989314.78	3859226.51	10.3632
33	127	-116.685	32.72777778	34	-0.33508	-0.28015	25.917	-12989314.78	3859226.51	10.3632
34	131	-116.685	32.72777778	34	-0.33508	-0.43396	25.917	-12989314.78	3859226.51	10.3632
35	135	-116.685	32.72777778	34	-0.30212	-0.30762	25.944	-12989314.78	3859226.51	10.3632
36	139	-116.685	32.72805556	35	-0.0879	-0.21423	26.197	-12989314.78	3859263.268	10.668
37	144	-116.6844444	32.72861111	35	-0.2417	-0.0879	26.29	-12989252.93	3859336.782	10.668
38	148	-116.6838889	32.72972222	35	0.21423	-0.12085	25.598	-12989191.1	3859483.814	10.668
39	152	-116.6830556	32.73138889	35	0.21423	-0.0275	25.17	-12989098.33	3859704.365	10.668
40	156	-116.6822222	32.73361111	36	-0.30762	0.24719	25.615	-12989005.56	3859998.439	10.9728
41	160	-116.6808333	32.73638889	37	-0.27466	0.46692	25.692	-12988850.95	3860366.043	11.2776
42	163	-116.6791667	32.73944444	41	0.63721	11.843	26.378	-12988665.42	3860770.419	12.4968
43	167	-116.6775	32.74305556	97	2.0764	12.634	26.587	-12988479.89	3861248.338	29.5656
44	171	-116.6755556	32.74666667	206	-3.7573	13.903	27.109	-12988263.44	3861726.275	62.7888
45	175	-116.6736111	32.75055556	369	-6.015	13.997	26.093	-12988046.98	3862240.999	112.4712
46	179	-116.6716667	32.755	586	-3.4332	13.48	24.274	-12987830.53	3862829.281	178.6128
47	183	-116.6697222	32.75972222	808	-0.2417	11.47	24.153	-12987614.07	3863454.363	246.2784
48	187	-116.6675	32.76472222	1012	-2.3236	11.245	23.89	-12987366.69	3864116.251	308.4576
49	191	-116.665	32.77	1255	-0.95032	7.6849	23.791	-12987088.39	3864814.952	382.524
50	195	-116.6625	32.77583333	1387	-1.0492	3.2465	23.286	-12986810.09	3865587.247	422.7576
51	199	-116.66	32.78194444	1405	1.1371	2.1478	24.329	-12986531.8	3866396.373	428.244
52	203	-116.6572222	32.78833333	1372	4.021	1.9995	24.576	-12986222.57	3867242.337	418.1856
53	207	-116.6541667	32.79472222	1384	-0.0879	4.5868	25.582	-12985882.44	3868088.362	421.8432
54	211	-116.6511111	32.80111111	1494	-1.8347	4.8395	24.576	-12985542.29	3868934.448	455.3712
55	215	-116.6480556	32.80777778	1664	-0.2417	7.4597	24.5	-12985202.15	3869817.385	507.1872
56	220	-116.6452778	32.81472222	1893	-3.7408	7.663	23.412	-12984892.93	3870737.18	576.9864
57	224	-116.6422222	32.82138889	2152	-4.9493	9.1187	22.462	-12984552.78	3871620.252	655.9296
58	228	-116.6394444	32.82833333	2505	-3.642	10.915	21.907	-12984243.56	3872540.189	763.524
59	232	-116.6366667	32.83527778	2927	-2.027	11.547	21.407	-12983934.34	3873460.199	892.1496
60	236	-116.6338889	32.84194444	3368	-0.18127	11.777	21.039	-12983625.12	3874343.474	1026.5664
61	240	-116.6313889	32.84888889	3808	1.9446	10.679	21.116	-12983346.82	3875263.625	1160.6784
62	243	-116.6286111	32.85555556	4209	1.2524	10.042	21.33	-12983037.6	3876147.037	1282.9032
63	247	-116.6261111	32.86222222	4570	0.12085	9.7833	21.16	-12982759.3	3877030.514	1392.936
64	251	-116.6233333	32.86888889	4920	-2.0435	10.129	20.33	-12982450.08	3877914.059	1499.616
65	255	-116.6208333	32.87555556	5246	-1.3513	9.3109	20.462	-12982171.78	3878797.671	1598.9808
66	259	-116.6180556	32.88222222	5532	1.4172	8.0859	20.599	-12981862.57	3879681.347	1686.1536
67	263	-116.6155556	32.88888889	5776	2.2961	7.1796	21.33	-12981584.27	3880565.092	1760.5248
68	267	-116.6130556	32.89555556	5998	-2.5983	7.5751	20.731	-12981305.97	3881448.902	1828.1904
69	271	-116.6102778	32.90222222	6237	-0.92285	7.0972	20.253	-12980996.75	3882332.778	1901.0376
70	275	-116.6077778	32.90888889	6419	2.2577	5.9161	20.649	-12980718.45	3883216.722	1956.5112
71	279	-116.6052778	32.91583333	6562	5.4163	6.9049	21.676	-12980440.15	3884137.567	2000.0976
72	283	-116.6025	32.9225	6757	-1.4117	7.5201	21.731	-12980130.93	3885021.647	2059.5336
73	287	-116.5997222	32.92916667	6972	-0.39001	7.6685	21.533	-12979821.7	3885905.793	2125.0656
74	291	-116.5969444	32.93611111	7224	0.82947	9.5526	21.654	-12979512.48	3886826.849	2201.8752
75	296	-116.5941667	32.94277778	7534	0.61523	10.195	21.462	-12979203.27	3887711.131	2296.3632
76	300	-116.5913889	32.94972222	7878	-5.8612	9.0967	21.484	-12978894.04	3888632.329	2401.2144
77	304	-116.5886111	32.95666667	8180	6.5588	8.7177	21.484	-12978584.82	3889553.6	2493.264
78	308	-116.5858333	32.96333333	8448	26.966	8.1024	26.18	-12978275.6	3890438.087	2574.9504
79	312	-116.5825	32.96972222	8686	20.154	8.7396	30.487	-12977904.54	3891285.784	2647.4928
80	316	-116.5788889	32.97583333	8926	21.522	8.822	34.75	-12977502.55	3892096.681	2720.6448
81	319	-116.5747222	32.98166667	9157	22.753	8.6188	39.446	-12977038.71	3892870.773	2791.0536
82	323	-116.5702778	32.98694444	9375	26.466	7.8827	45.154	-12976543.97	3893571.184	2857.5
83	327	-116.5652778	32.99194444	9574	22.742	8.9539	50.186	-12975987.37	3894234.771	2918.1552
84	331	-116.56	32.99638889	9788	11.052	8.4869	54.229	-12975399.85	3894824.659	2983.3824
85	335	-116.5544444	33.00027778	9999	10.19	8.5803	55.388	-12974781.4	3895340.834	3047.6952
86	339	-116.5486111	33.00444444	10203	6.9434	8.3496	56.926	-12974132.04	3895893.903	3109.8744
87	343	-116.5427778	33.00833333	10413	4.7296	8.6627	58.013	-12973482.68	3896410.126	3173.8824
88	347	-116.5366667	33.01222222	10624	1.2524	8.2068	58.162	-12972802.4	3896926.371	3238.1952
89	351	-116.5305556	33.01611111	10830	1.9061	7.5641	58.271	-12972122.11	3897442.639	3300.984
90	355	-116.5244444	33.01972222	11032	0.69763	7.5916	58.37	-12971441.82	3897922.051	3362.5536
91	359	-116.5183333	33.02361111	11219	1.5985	6.8939	58.392	-12970761.53	3898438.363	3419.5512
92	363	-116.5119444	33.0275	11375	-1.7853	5.9436	58.03	-12970050.32	3898954.698	3467.1
93	367	-116.5058333	33.03138889	11512	-0.48889	5.8612	58.14	-12969370.04	3899471.055	3508.8576
94	372	-116.4994444	33.03555556	11669	0.36804	6.1963	58.321	-12968658.83	3900024.321	3556.7112
95	376	-116.4930556	33.03944444	11834	0.15381	6.5479	58.14	-12967947.63	3900540.724	3607.0032
96	380	-116.4863889	33.04361111	11991	0.0604	5.5756	57.805	-12967205.5	3901094.041	3654.8568
97	384	-116.48	33.04777778	12122	-1.0712	4.7021	57.711	-12966494.29	3901647.383	3694.7856
98	388	-116.4733333	33.05194444	12251	-0.26917	5.603	57.546	-12965752.15	3902200.75	3734.1048
99	392	-116.4666667	33.05611111	12409	21.929	6.0974	59.914	-12965010.03	3902754.145	3782.2632
100	395	-116.4597222	33.05972222	12567	38.853	5.9546	67.495	-12964236.97	3903233.775	3830.4216
101	399	-116.4522222	33.0625	12723	47.335	5.2405	76.761	-12963402.08	3903602.734	3877.9704
102	403	-116.4441667	33.06416667	12842	59.93	4.9219	90.747	-12962505.34	3903824.116	3914.2416
103	407	-116.4363889	33.06361111	12944	56.711	4.9933	104.39	-12961639.52	3903750.321	3945.3312
104	411	-116.4286111	33.06111111	13055	56.558	6.2238	120.4	-12960773.7	3903418.253	3979.164
105	415	-116.4219444	33.05694444	13176	49.351	6.2402	132.14	-12960031.57	3902864.827	4016.0448
106	419	-116.4166667	33.05138889	13330	49.812	8.3331	145.86	-12959444.06	3902126.967	4062.984
107	423	-116.4127778	33.04527778	13567	45.412	10.333	159.19	-12959011.15	3901315.375	4135.2216
108	427	-116.4102778	33.03833333	13866	45.06	12.321	171.59	-12958732.85	3900393.178	4226.3568
109	431	-116.4094444	33.03138889	14229	5.2954	11.997	175.23	-12958640.07	3899471.055	4336.9992
110	435	-116.4088889	33.02444444	14576	5.1086	10.767	177.01	-12958578.24	3898549.004	4442.7648
111	439	-116.4083333	33.0175	14859	1.0876	10.327	176.87	-12958516.39	3897627.026	4529.0232
112	443	-116.4077778	33.01027778	15081	-0.35706	7.6849	176.65	-12958454.55	3896668.246	4596.6888
113	448	-116.4072222	33.00333333	15227	2.6642	6.1084	177.36	-12958392.7	3895746.416	4641.1896
114	452	-116.4066667	32.99611111	15331	3.8947	6.5588	177.94	-12958330.86	3894787.79	4672.8888
115	456	-116.4063889	32.98888889	15445	4.1638	5.7404	178.65	-12958299.94	3893829.242	4707.636
116	460	-116.4061111	32.98138889	15543	3.0432	5.8667	179.17	-12958269.01	3892833.91	4737.5064
117	464	-116.4058333	32.97416667	15625	1.4282	5.0482	179.26	-12958238.09	3891875.523	4762.5
118	468	-116.4055556	32.96666667	15715	2.774	6.0919	179.92	-12958207.17	3890880.357	4789.932
119	472	-116.4052778	32.95916667	15840	2.6917	6.7181	180.02	-12958176.25	3889885.275	4828.032
120	475	-116.4052778	32.95138889	15998	3.9221	7.8662	180.44	-12958176.25	3888853.428	4876.1904
121	479	-116.4052778	32.94388889	16180	0.39551	6.4929	180.45	-12958176.25	3887858.518	4931.664
122	483	-116.4052778	32.93611111	16328	0.45044	5.658	180.68	-12958176.25	3886826.849	4976.7744
123	487	-116.4052778	32.92833333	16438	-0.63171	5.1141	180.51	-12958176.25	3885795.27	5010.3024
124	491	-116.405	32.92027778	16520	-2.0599	3.4497	180.12	-12958145.33	3884726.947	5035.296
125	495	-116.405	32.9125	16559	0.45044	4.3506	180.05	-12958145.33	3883695.553	5047.1832
126	499	-116.405	32.90444444	16626	-1.2964	3.6969	179.92	-12958145.33	3882627.419	5067.6048
127	503	-116.4047222	32.89611111	16665	-0.83496	3.1366	179.47	-12958114.4	3881522.556	5079.492
128	507	-116.4047222	32.88777778	16697	1.7908	4.0265	179.79	-12958114.4	3880417.796	5089.2456
129	511	-116.4044444	32.87944444	16771	1.6534	4.3671	179.88	-12958083.48	3879313.14	5111.8008
130	515	-116.4044444	32.87111111	16867	1.4557	4.8669	179.79	-12958083.48	3878208.589	5141.0616
131	519	-116.4044444	32.8625	16989	19.479	5.4218	181.52	-12958083.48	3877067.328	5178.2472
132	524	-116.405	32.85388889	17135	29.141	5.7513	187.26	-12958145.33	3875926.177	5222.748
133	528	-116.4061111	32.84555556	17322	35.25	7.0697	194.77	-12958269.01	3874821.944	5279.7456
134	532	-116.4083333	32.8375	17537	38.469	7.0313	201.97	-12958516.39	3873754.616	5345.2776
135	536	-116.4116667	32.82972222	17732	39.803	6.2787	209.3	-12958887.46	3872724.185	5404.7136
136	540	-116.4158333	32.82222222	17919	4.5813	8.0475	212.07	-12959351.28	3871730.641	5461.7112
137	544	-116.4202778	32.815	18161	-2.8455	5.592	211.55	-12959846.04	3870773.974	5535.4728
138	548	-116.4244444	32.8075	18327	-36.343	6.5588	208.3	-12960309.87	3869780.594	5586.0696
139	551	-116.4280556	32.8	18478	-55.893	5.1526	195.43	-12960711.86	3868787.298	5632.0944
140	555	-116.4297222	32.79166667	18558	-60.018	2.6807	183.35	-12960897.39	3867683.735	5656.4784
141	559	-116.43	32.78305556	18537	-54.141	1.972	170.52	-12960928.31	3866543.494	5650.0776
142	563	-116.4280556	32.77472222	18491	-53.86	2.3236	157.02	-12960711.86	3865440.139	5636.0568
143	567	-116.4247222	32.76694444	18467	-50.674	3.0981	144.41	-12960340.79	3864410.436	5628.7416
144	568	-116.4236111	32.76527778	18465	-51.268	3.0927	141.32	-12960217.1	3864189.797	5628.132
145	570	-116.4222222	32.76361111	18463	-50.548	3.4882	137.77	-12960062.49	3863969.162	5627.5224
146	570	-116.4208333	32.76166667	18464	-50.68	3.4387	134.73	-12959907.88	3863711.76	5627.8272
147	571	-116.4194444	32.76027778	18469	-51.356	3.2684	132.07	-12959753.27	3863527.905	5629.3512
148	572	-116.4180556	32.75861111	18473	-49.526	3.3618	129.29	-12959598.67	3863307.282	5630.5704
149	574	-116.4163889	32.75722222	18477	-49.411	3.7683	126.11	-12959413.13	3863123.433	5631.7896
150	574	-116.415	32.75583333	18484	-49.213	3.9441	123.06	-12959258.52	3862939.587	5633.9232
151	575	-116.4130556	32.75472222	18493	-50.268	3.7848	120.34	-12959042.07	3862792.512	5636.6664
152	576	-116.4113889	32.75333333	18501	-49.411	3.9606	117.36	-12958856.53	3862608.671	5639.1048
153	578	-116.4097222	32.75222222	18513	-48.719	4.2737	114.42	-12958671	3862461.601	5642.7624
154	578	-116.4077778	32.75138889	18526	-47.78	3.988	112.08	-12958454.55	3862351.299	5646.7248
155	579	-116.4058333	32.75027778	18539	-45.912	4.0649	109.68	-12958238.09	3862204.232	5650.6872
156	580	-116.4038889	32.74972222	18553	-43.5	4.5703	107.1	-12958021.64	3862130.698	5654.9544
157	582	-116.4019444	32.74888889	18572	-41.061	5.6085	104.39	-12957805.18	3862020.4	5660.7456
158	583	-116.4	32.74833333	18598	-42.682	5.658	102.29	-12957588.73	3861946.867	5668.6704
159	583	-116.3980556	32.7475	18628	-37.579	4.8505	100.9	-12957372.28	3861836.571	5677.8144
160	584	-116.3961111	32.74722222	18656	-25.505	4.043	100.8	-12957155.82	3861799.805	5686.3488
161	586	-116.3938889	32.74666667	18679	-15.057	4.054	100.61	-12956908.44	3861726.275	5693.3592
162	587	-116.3919444	32.74611111	18699	-13.035	5.1196	100.03	-12956691.98	3861652.745	5699.4552
163	587	-116.39	32.74583333	18725	-9.2834	5.213	99.476	-12956475.53	3861615.98	5707.38
164	588	-116.3877778	32.74527778	18753	-5.9216	4.9054	99.476	-12956228.16	3861542.451	5715.9144
165	589	-116.3858333	32.745	18782	0.27466	5.0372	99.646	-12956011.7	3861505.686	5724.7536
166	591	-116.3836111	32.74472222	18812	2.6917	5.0482	99.976	-12955764.32	3861468.921	5733.8976
167	591	-116.3816667	32.74416667	18842	2.851	4.9438	99.943	-12955547.87	3861395.394	5743.0416
168	592	-116.3797222	32.74388889	18872	1.9006	5.4382	99.91	-12955331.41	3861358.629	5752.1856
169	593	-116.3775	32.74333333	18908	1.9061	6.2073	100.04	-12955084.04	3861285.101	5763.1584
170	595	-116.3755556	32.74305556	18945	1.4722	6.85	100.05	-12954867.59	3861248.338	5774.436
171	595	-116.3736111	32.7425	18990	1.1975	8.3881	100.02	-12954651.13	3861174.811	5788.152
172	599	-116.365	32.74083333	19299	-0.84045	7.9926	100.36	-12953692.55	3860954.232	5882.3352
173	604	-116.3566667	32.73972222	19656	-59.035	13.019	82.694	-12952764.89	3860807.182	5991.1488
174	608	-116.3488889	32.74083333	20252	-52.267	22.269	60.87	-12951899.07	3860954.232	6172.8096
175	612	-116.3427778	32.74472222	21093	-66.907	24.109	29.707	-12951218.78	3861468.921	6429.1464
176	616	-116.3397222	32.75	21953	-65.577	28.817	2.3236	-12950878.63	3862167.465	6691.2744
177	620	-116.3391667	32.75527778	22757	-80.563	22.088	344.59	-12950816.8	3862866.05	6936.3336
178	624	-116.3408333	32.76027778	23267	-76.657	13.233	320.57	-12951002.32	3863527.905	7091.7816
179	627	-116.3438889	32.76416667	23462	-59.502	12.42	301.17	-12951342.47	3864042.707	7151.2176
180	631	-116.3477778	32.76666667	23486	-51.685	11.838	281.71	-12951775.38	3864373.663	7158.5328
181	633	-116.3488889	32.76694444	23476	-50.18	12.629	277.3	-12951899.07	3864410.436	7155.4848
182	633	-116.35	32.76722222	23466	-46.84	13.112	273.45	-12952022.75	3864447.209	7152.4368
183	634	-116.3511111	32.7675	23456	-44.89	13.195	270.34	-12952146.44	3864483.983	7149.3888
184	635	-116.3522222	32.76777778	23444	-43.149	12.7	267.76	-12952270.13	3864520.758	7145.7312
185	637	-116.3533333	32.76777778	23430	-42.451	12.827	264.4	-12952393.82	3864520.758	7141.464
186	638	-116.3544444	32.76777778	23414	-41.896	12.354	261.17	-12952517.5	3864520.758	7136.5872
187	638	-116.3555556	32.76777778	23394	-40.897	12.431	257.05	-12952641.2	3864520.758	7130.4912
188	639	-116.3566667	32.76777778	23372	-39.287	13.277	252.48	-12952764.89	3864520.758	7123.7856
189	641	-116.3577778	32.7675	23349	-41.166	13.661	248.89	-12952888.57	3864483.983	7116.7752
190	642	-116.3586111	32.76722222	23327	-38.562	13.118	245.93	-12952981.34	3864447.209	7110.0696
191	642	-116.3597222	32.76694444	23303	-38.677	11.805	243.62	-12953105.02	3864410.436	7102.7544
192	643	-116.3608333	32.76666667	23276	-37.776	10.311	241.28	-12953228.71	3864373.663	7094.5248
193	645	-116.3616667	32.76611111	23242	-36.145	9.8108	238.14	-12953321.48	3864300.116	7084.1616
194	646	-116.3627778	32.76583333	23205	-35.92	10.316	234.77	-12953445.17	3864263.343	7072.884
195	646	-116.3636111	32.76527778	23166	-36.013	10.333	231.95	-12953537.93	3864189.797	7060.9968
196	647	-116.3644444	32.76472222	23125	-34.761	9.6295	229.52	-12953630.7	3864116.251	7048.5
197	648	-116.3655556	32.76416667	23081	-33.041	9.1187	226.81	-12953754.4	3864042.707	7035.0888
198	650	-116.3663889	32.76361111	23034	-29.597	8.421	224.4	-12953847.16	3863969.162	7020.7632
199	650	-116.3672222	32.76277778	22980	-23.665	5.6744	223.5	-12953939.92	3863858.847	7004.304
200	651	-116.3680556	32.76222222	22923	-26.257	4.4055	222.57	-12954032.69	3863785.303	6986.9304
201	652	-116.3688889	32.76138889	22860	-22.335	4.7571	220.79	-12954125.46	3863674.989	6967.728
202	654	-116.3694444	32.76055556	22793	-17.358	4.2682	219.65	-12954187.29	3863564.676	6947.3064
203	654	-116.3702778	32.75972222	22724	-17.084	3.0048	219.35	-12954280.07	3863454.363	6926.2752
204	655	-116.3711111	32.75888889	22650	-13.266	2.1313	219.09	-12954372.83	3863344.053	6903.72
205	656	-116.3719444	32.75805556	22572	-10.245	2.1753	218.95	-12954465.59	3863233.743	6879.9456
206	658	-116.3725	32.75722222	22493	-8.0145	2.7301	218.95	-12954527.44	3863123.433	6855.8664
207	659	-116.3733333	32.75638889	22413	-4.9933	2.2302	219.06	-12954620.2	3863013.125	6831.4824
208	659	-116.3741667	32.75555556	22333	-6.839	1.4063	219.25	-12954712.98	3862902.819	6807.0984
209	660	-116.375	32.75444444	22253	-8.7231	1.6589	218.52	-12954805.74	3862755.743	6782.7144
210	662	-116.3758333	32.75361111	22172	-8.9813	2.4884	216.92	-12954898.5	3862645.439	6758.0256
211	663	-116.3763889	32.7525	22094	-9.9316	2.9608	215.55	-12954960.35	3862498.368	6734.2512
212	663	-116.3772222	32.75166667	22020	-10.563	2.4609	214.87	-12955053.12	3862388.067	6711.696
213	664	-116.3780556	32.75055556	21947	-5.5316	1.6589	214.55	-12955145.89	3862240.999	6689.4456
214	665	-116.3788889	32.74944444	21874	-3.3234	1.5765	215.29	-12955238.65	3862093.932	6667.1952
215	667	-116.3797222	32.74833333	21801	-0.44495	2.3621	216.13	-12955331.41	3861946.867	6644.9448
216	667	-116.3805556	32.74722222	21731	-4.7626	3.3344	216.21	-12955424.19	3861799.805	6623.6088
217	668	-116.3811111	32.74611111	21665	-1.7688	4.4495	214.89	-12955486.03	3861652.745	6603.492
218	669	-116.3819444	32.745	21607	-5.224	5.5371	214.12	-12955578.79	3861505.686	6585.8136
219	671	-116.3827778	32.74388889	21558	-3.5321	6.0205	213.89	-12955671.56	3861358.629	6570.8784
220	671	-116.3836111	32.74277778	21515	-4.4604	6.1029	213.89	-12955764.32	3861211.574	6557.772
221	672	-116.3844444	32.74138889	21480	-1.8787	6.4105	213.72	-12955857.09	3861027.758	6547.104
222	673	-116.3852778	32.74027778	21450	-1.6919	7.3444	213.84	-12955949.86	3860880.707	6537.96
223	675	-116.3861111	32.73916667	21427	-0.73059	8.4155	213.85	-12956042.62	3860733.658	6530.9496
224	675	-116.3869444	32.73777778	21412	-4.3726	9.1681	213.62	-12956135.39	3860549.849	6526.3776
225	676	-116.3877778	32.73666667	21404	-17.65	9.9536	211.57	-12956228.16	3860402.804	6523.9392
226	677	-116.3886111	32.73527778	21404	-20.264	10.486	207.09	-12956320.92	3860219	6523.9392
227	679	-116.3891667	32.73416667	21411	-29.24	11.607	203.66	-12956382.77	3860071.96	6526.0728
228	680	-116.39	32.73277778	21426	-31.097	12.821	200.39	-12956475.53	3859888.161	6530.6448
229	680	-116.3905556	32.73138889	21451	-34.519	14.013	196.83	-12956537.38	3859704.365	6538.2648
230	681	-116.3911111	32.73027778	21484	-36.068	15.32	192.64	-12956599.22	3859557.331	6548.3232
231	683	-116.3916667	32.72888889	21526	-42.72	16.375	188.25	-12956661.07	3859373.54	6561.1248
232	686	-116.3925	32.72333333	21732	-60.54	12.98	164.11	-12956753.83	3858638.406	6623.9136
233	690	-116.3916667	32.71833333	21839	-62.864	8.4869	141.2	-12956661.07	3857976.825	6656.5272
234	694	-116.3891667	32.71416667	21746	-94.609	-14.431	114.8	-12956382.77	3857425.537	6628.1808
235	698	-116.3858333	32.71194444	21158	-95.065	-34.052	84.891	-12956011.7	3857131.526	6448.9584
236	702	-116.3825	32.71194444	20013	-68.972	-46.274	40.633	-12955640.64	3857131.526	6099.9624
237	706	-116.3802778	32.71388889	18477	-42.874	-41.44	357.78	-12955393.26	3857388.785	5631.7896
238	710	-116.3805556	32.71777778	17015	-22.22	-27.164	329.61	-12955424.19	3857903.319	5186.172
239	714	-116.3827778	32.7225	15891	-0.14832	-9.4867	330.4	-12955671.56	3858528.141	4843.5768
240	718	-116.3852778	32.72777778	15365	24.73	10.305	343.97	-12955949.86	3859226.51	4683.252
241	722	-116.3863889	32.73333333	15517	39.375	21.973	5.5536	-12956073.55	3859961.679	4729.5816
242	726	-116.3855556	32.73861111	15990	51.334	24.741	22.165	-12955980.79	3860660.134	4873.752
243	730	-116.3836111	32.74305556	16488	58.799	21.105	42.089	-12955764.32	3861248.338	5025.5424
244	735	-116.3805556	32.74638889	16846	58.442	15.661	59.354	-12955424.19	3861689.51	5134.6608
245	739	-116.3763889	32.74861111	17037	66.264	10.201	82.238	-12954960.35	3861983.634	5192.8776
246	743	-116.3716667	32.74944444	17046	69.038	-0.45593	106.07	-12954434.68	3862093.932	5195.6208
247	747	-116.3672222	32.74805556	16803	58.727	-3.5211	129.38	-12953939.92	3861910.103	5121.5544
248	751	-116.3636111	32.74527778	16411	54.948	-5.4767	153.31	-12953537.93	3861542.451	5002.0728
249	755	-116.3611111	32.74111111	15994	10.92	0.30212	155.99	-12953259.64	3860990.995	4874.9712
250	756	-116.3605556	32.74	15909	4.5154	0.61523	155.75	-12953197.8	3860843.944	4849.0632
251	756	-116.36	32.73888889	15831	4.3671	1.0876	155.86	-12953135.95	3860696.896	4825.2888
252	757	-116.3594444	32.7375	15760	-0.33508	1.8622	156.45	-12953074.1	3860513.087	4803.648
253	759	-116.3586111	32.73638889	15697	-7.0148	3.3948	155.48	-12952981.34	3860366.043	4784.4456
254	760	-116.3580556	32.735	15645	-30.515	4.4714	151.28	-12952919.5	3860182.24	4768.596
255	760	-116.3575	32.73388889	15600	-40.375	4.6637	142.93	-12952857.65	3860035.2	4754.88
256	761	-116.3566667	32.73277778	15566	-50.032	5.4712	135.29	-12952764.89	3859888.161	4744.5168
257	762	-116.3558333	32.73166667	15546	-52.482	5.9491	129	-12952672.11	3859741.124	4738.4208
258	764	-116.3547222	32.73055556	15534	-57.448	5.1965	123.9	-12952548.43	3859594.09	4734.7632
259	768	-116.35	32.7275	15495	-56.338	5.8447	99.547	-12952022.75	3859189.752	4722.876
260	772	-116.3447222	32.72666667	15487	-54.311	6.2347	80.964	-12951435.23	3859079.482	4720.4376
261	776	-116.3394444	32.7275	15436	-53.163	3.4003	62.045	-12950847.71	3859189.752	4704.8928
262	780	-116.3344444	32.73	15298	-66.544	-1.0602	38.628	-12950291.11	3859520.572	4662.8304
263	783	-116.3308333	32.73416667	14980	-66.242	-6.5479	15.189	-12949889.13	3860071.96	4565.904
264	787	-116.3288889	32.73972222	14411	-75.394	-18.04	348.26	-12949672.68	3860807.182	4392.4728
265	791	-116.33	32.745	13569	-60.222	-16.979	317.49	-12949796.36	3861505.686	4135.8312
266	795	-116.3341667	32.74916667	12775	-51.965	-8.9209	285.38	-12950260.2	3862057.166	3893.82
267	797	-116.3355556	32.74972222	12621	-52.35	-6.2238	277.15	-12950414.81	3862130.698	3846.8808
268	798	-116.3369444	32.75027778	12485	-54.948	-3.8452	267.56	-12950569.41	3862204.232	3805.428
269	798	-116.3383333	32.75055556	12384	-56.047	-2.3621	259.18	-12950724.02	3862240.999	3774.6432
270	799	-116.34	32.75027778	12295	-54.756	-0.20874	250.1	-12950909.56	3862204.232	3747.516
271	800	-116.3413889	32.75	12231	-56.827	2.1918	242.12	-12951064.17	3862167.465	3728.0088
272	802	-116.3427778	32.74972222	12185	-59.908	2.785	234.39	-12951218.78	3862130.698	3713.988
273	802	-116.3438889	32.74916667	12150	-58.365	1.8951	227.47	-12951342.47	3862057.166	3703.32
274	803	-116.3452778	32.74833333	12121	-51.185	1.4063	225.86	-12951497.08	3861946.867	3694.4808
275	804	-116.3461111	32.7475	12093	-48.186	2.6038	223.54	-12951589.84	3861836.571	3685.9464
276	806	-116.3472222	32.74638889	12064	-40.979	1.8732	220.74	-12951713.53	3861689.51	3677.1072
277	806	-116.3483333	32.74527778	12037	-37.864	2.0819	218.39	-12951837.22	3861542.451	3668.8776
278	807	-116.3491667	32.74416667	12015	-33.591	2.4664	216.4	-12951929.99	3861395.394	3662.172
279	808	-116.3502778	32.74305556	11995	-32.679	2.7356	214.22	-12952053.68	3861248.338	3656.076
280	810	-116.3511111	32.74194444	11979	-31.064	2.796	211.89	-12952146.44	3861101.283	3651.1992
281	811	-116.3519444	32.74055556	11966	-29.081	2.9883	210.04	-12952239.2	3860917.47	3647.2368
282	811	-116.3527778	32.73916667	11956	-26.658	4.6527	207.68	-12952331.98	3860733.658	3644.1888
283	812	-116.3536111	32.73777778	11959	-16.271	8.4045	205.25	-12952424.74	3860549.849	3645.1032
284	814	-116.3544444	32.73638889	11989	-4.9878	15.463	205.15	-12952517.5	3860366.043	3654.2472
285	815	-116.355	32.735	12068	-3.175	26.208	206.03	-12952579.35	3860182.24	3678.3264
286	815	-116.3558333	32.73361111	12208	-21.731	27.01	204.04	-12952672.11	3859998.439	3720.9984
287	816	-116.3563889	32.7325	12377	-62.347	20.709	194.43	-12952733.96	3859851.401	3772.5096
288	818	-116.3566667	32.73111111	12538	-94.048	14.557	186.62	-12952764.89	3859667.606	3821.5824
289	819	-116.3569444	32.72972222	12671	-89.028	11.563	179.46	-12952795.8	3859483.814	3862.1208
290	819	-116.3572222	32.72805556	12775	-79.113	11.135	174.85	-12952826.73	3859263.268	3893.82
291	820	-116.3572222	32.72666667	12859	-79.486	10.541	171.33	-12952826.73	3859079.482	3919.4232
292	821	-116.3569444	32.72527778	12919	-81.628	6.9708	164.77	-12952795.8	3858895.698	3937.7112
293	823	-116.3566667	32.72361111	12964	-81.771	3.3948	156.54	-12952764.89	3858675.162	3951.4272
294	823	-116.3563889	32.72222222	12981	-80.469	2.6752	148.43	-12952733.96	3858491.385	3956.6088
295	827	-116.3527778	32.7175	12888	-72.488	-1.7908	117.28	-12952331.98	3857866.566	3928.2624
296	832	-116.3477778	32.71527778	12692	-59.529	0.4834	93.181	-12951775.38	3857572.545	3868.5216
297	836	-116.3419444	32.71527778	12521	-58.414	2.417	67.44	-12951126.01	3857572.545	3816.4008
298	840	-116.3366667	32.71777778	12431	-60.546	5.1196	38.051	-12950538.5	3857903.319	3788.9688
299	844	-116.3333333	32.72222222	12409	-58.931	6.9818	12.167	-12950167.43	3858491.385	3782.2632
300	848	-116.3322222	32.7275	12423	-57.656	7.1686	348.41	-12950043.74	3859189.752	3786.5304
301	852	-116.3333333	32.73305556	12437	-50.356	7.4817	330.93	-12950167.43	3859924.921	3790.7976
302	853	-116.3336111	32.73444444	12444	-47.422	8.3167	326.11	-12950198.35	3860108.719	3792.9312
303	853	-116.3341667	32.73555556	12455	-46.544	8.0585	322.42	-12950260.2	3860255.761	3796.284
304	854	-116.335	32.73666667	12470	-48.752	7.7948	319.21	-12950352.96	3860402.804	3800.856
305	856	-116.3358333	32.73777778	12483	-48.329	7.7289	315.13	-12950445.72	3860549.849	3804.8184
306	857	-116.3366667	32.73888889	12496	-43.698	6.9763	311.85	-12950538.5	3860696.896	3808.7808
307	857	-116.3375	32.74	12508	-27.328	5.0372	311.81	-12950631.26	3860843.944	3812.4384
308	858	-116.3383333	32.74083333	12512	-10.811	3.197	313.79	-12950724.02	3860954.232	3813.6576
309	859	-116.3394444	32.74194444	12505	2.8015	1.8896	314.82	-12950847.71	3861101.283	3811.524
310	861	-116.3402778	32.74277778	12486	9.7888	1.7249	315.13	-12950940.48	3861211.574	3805.7328
311	861	-116.3411111	32.74388889	12460	13.788	2.428	316.28	-12951033.25	3861358.629	3797.808
312	862	-116.3422222	32.745	12432	19.896	2.5543	317.92	-12951156.93	3861505.686	3789.2736
313	863	-116.3430556	32.74611111	12404	22.363	1.7523	319.56	-12951249.71	3861652.745	3780.7392
314	865	-116.3441667	32.74722222	12373	24.977	1.8182	321.34	-12951373.39	3861799.805	3771.2904
315	865	-116.345	32.74833333	12341	29.064	1.4941	322.94	-12951466.16	3861946.867	3761.5368
316	866	-116.3458333	32.74944444	12306	34.503	0.69214	324.88	-12951558.92	3862093.932	3750.8688
317	867	-116.3466667	32.75083333	12266	38.117	-0.30762	327.22	-12951651.69	3862277.765	3738.6768
318	869	-116.3475	32.75194444	12219	37.04	-1.0107	329.3	-12951744.46	3862424.833	3724.3512
319	870	-116.3483333	32.75333333	12166	31.404	-1.4117	330.69	-12951837.22	3862608.671	3708.1968
320	870	-116.3491667	32.75472222	12109	28.976	-1.3623	331.97	-12951929.99	3862792.512	3690.8232
321	871	-116.35	32.75611111	12049	31.816	-1.181	333.83	-12952022.75	3862976.356	3672.5352
322	873	-116.3505556	32.7575	11989	35.096	-0.84595	336.87	-12952084.6	3863160.203	3654.2472
323	874	-116.3511111	32.75916667	11929	37.831	-0.66467	339.68	-12952146.44	3863380.823	3635.9592
324	874	-116.3516667	32.76055556	11874	38.584	0.14832	342.71	-12952208.29	3863564.676	3619.1952
325	875	-116.3522222	32.76222222	11823	39.666	0.7251	345.47	-12952270.13	3863785.303	3603.6504
326	877	-116.3527778	32.76388889	11781	40.979	0.89539	348.13	-12952331.98	3864005.935	3590.8488
327	878	-116.3530556	32.76555556	11737	44.973	1.2195	351.99	-12952362.9	3864226.571	3577.4376
328	878	-116.3533333	32.76722222	11700	46.252	1.236	355.24	-12952393.82	3864447.209	3566.16
329	879	-116.3536111	32.76888889	11666	47.653	1.626	358.97	-12952424.74	3864667.854	3555.7968
330	880	-116.3536111	32.77083333	11636	48.999	2.2302	3.2245	-12952424.74	3864925.276	3546.6528
331	882	-116.3536111	32.7725	11611	49.905	2.6093	7.2949	-12952424.74	3865145.93	3539.0328
332	882	-116.3533333	32.77416667	11589	52.191	2.1149	10.366	-12952393.82	3865366.587	3532.3272
333	883	-116.3530556	32.77583333	11568	53.146	1.6205	14.293	-12952362.9	3865587.247	3525.9264
334	884	-116.3527778	32.7775	11544	53.635	1.6864	18.155	-12952331.98	3865807.913	3518.6112
335	886	-116.3522222	32.77916667	11519	52.273	2.2961	22.714	-12952270.13	3866028.583	3510.9912
336	887	-116.3516667	32.78083333	11497	52.652	2.9553	27.219	-12952208.29	3866249.255	3504.2856
337	887	-116.3511111	32.7825	11478	53.542	2.9993	31.3	-12952146.44	3866469.933	3498.4944
338	888	-116.3502778	32.78388889	11463	55.931	3.7683	37.112	-12952053.68	3866653.835	3493.9224
339	890	-116.3491667	32.78527778	11451	56.876	4.3286	43.028	-12951929.99	3866837.739	3490.2648
340	891	-116.3483333	32.78666667	11446	58.442	4.6692	48.318	-12951837.22	3867021.646	3488.7408
341	891	-116.3472222	32.78777778	11444	58.079	5.1416	54.212	-12951713.53	3867168.773	3488.1312
342	892	-116.3458333	32.78888889	11447	58.486	5.6305	59.584	-12951558.92	3867315.903	3489.0456
343	894	-116.3444444	32.79	11453	57.118	6.1249	65.154	-12951404.31	3867463.034	3490.8744
344	895	-116.3430556	32.79083333	11462	57.788	6.8829	70.637	-12951249.71	3867573.383	3493.6176
345	895	-116.3416667	32.79138889	11476	56.684	7.207	75.668	-12951095.1	3867646.951	3497.8848
346	896	-116.3402778	32.79194444	11493	55.052	7.7124	80.859	-12950940.48	3867720.517	3503.0664
347	897	-116.3386111	32.79222222	11514	55.223	8.476	85.754	-12950754.95	3867757.302	3509.4672
348	899	-116.3372222	32.7925	11540	54.108	8.4375	90.099	-12950600.34	3867794.086	3517.392
349	899	-116.3355556	32.79277778	11567	56.349	8.3826	94.757	-12950414.81	3867830.87	3525.6216
350	900	-116.3341667	32.79277778	11595	54.333	7.9706	99.432	-12950260.2	3867830.87	3534.156
351	901	-116.3325	32.79277778	11624	41.188	9.3604	103.22	-12950074.66	3867830.87	3542.9952
352	903	-116.3311111	32.7925	11663	26.274	12.805	104.28	-12949920.05	3867794.086	3554.8824
353	903	-116.3297222	32.79222222	11718	16.963	15.024	103.6	-12949765.44	3867757.302	3571.6464
354	904	-116.3280556	32.79194444	11789	15.601	14.881	103.48	-12949579.91	3867720.517	3593.2872
355	905	-116.3266667	32.79166667	11868	21.324	13.656	105.1	-12949425.3	3867683.735	3617.3664
356	907	-116.3252778	32.79138889	11947	23.654	13.074	107.14	-12949270.69	3867646.951	3641.4456
357	908	-116.3238889	32.79111111	12023	23.313	13.513	108.65	-12949116.08	3867610.167	3664.6104
358	908	-116.3225	32.79055556	12101	20.781	14.052	109.7	-12948961.47	3867536.601	3688.3848
359	909	-116.3211111	32.79027778	12180	16.793	14.376	110.75	-12948806.86	3867499.817	3712.464
360	911	-116.3197222	32.78972222	12266	14.041	14.985	111.43	-12948652.24	3867426.251	3738.6768
361	912	-116.3183333	32.78916667	12352	10.058	15.425	111.84	-12948497.63	3867352.686	3764.8896
362	912	-116.3169444	32.78861111	12441	4.9164	14.683	111.6	-12948343.02	3867279.12	3792.0168
363	913	-116.3155556	32.78833333	12528	2.384	12.563	111.02	-12948188.42	3867242.337	3818.5344
364	915	-116.3141667	32.78777778	12605	0.70313	8.6627	110.9	-12948033.81	3867168.773	3842.004
365	916	-116.3127778	32.78722222	12661	0.81299	3.2135	110.99	-12947879.2	3867095.209	3859.0728
366	916	-116.3113889	32.78666667	12687	2.5818	0.0934	111.17	-12947724.59	3867021.646	3866.9976
367	917	-116.31	32.78611111	12681	3.4003	-2.0984	111.19	-12947569.97	3866948.082	3865.1688
368	918	-116.3086111	32.78555556	12644	4.8175	-6.438	110.92	-12947415.36	3866874.52	3853.8912
369	920	-116.3072222	32.785	12573	6.5039	-9.9756	110.81	-12947260.75	3866800.958	3832.2504
370	920	-116.3055556	32.78444444	12471	9.4208	-12.881	110.91	-12947075.23	3866727.395	3801.1608
371	921	-116.3041667	32.78388889	12338	10.272	-12.816	111.49	-12946920.61	3866653.835	3760.6224
372	922	-116.3027778	32.78333333	12186	9.3494	-10.717	112.65	-12946766	3866580.273	3714.2928
373	924	-116.3011111	32.78277778	12033	8.6957	-8.2672	113.4	-12946580.47	3866506.714	3667.6584
374	924	-116.2997222	32.78222222	11891	7.0697	-4.4824	114.09	-12946425.85	3866433.153	3624.3768
375	925	-116.2980556	32.78166667	11778	4.433	0.60974	114.82	-12946240.33	3866359.594	3589.9344
376	926	-116.2966667	32.78083333	11705	4.2847	4.0594	114.97	-12946085.72	3866249.255	3567.684
377	928	-116.295	32.78027778	11672	3.5266	7.218	115.28	-12945900.18	3866175.698	3557.6256
378	929	-116.2933333	32.77944444	11677	3.1915	10.624	115.65	-12945714.65	3866065.36	3559.1496
379	929	-116.2919444	32.77888889	11716	3.5541	13.596	115.96	-12945560.03	3865991.804	3571.0368
380	930	-116.2902778	32.77805556	11788	3.8947	14.661	116.18	-12945374.51	3865881.469	3592.9824
381	932	-116.2888889	32.7775	11881	2.1313	15.529	116.36	-12945219.9	3865807.913	3621.3288
382	933	-116.2875	32.77694444	11984	3.2245	16.397	116.22	-12945065.29	3865734.357	3652.7232
383	933	-116.2858333	32.77611111	12103	3.4442	17.353	116.58	-12944879.75	3865624.025	3688.9944
384	934	-116.2841667	32.77527778	12245	3.7848	17.759	116.76	-12944694.22	3865513.694	3732.276
385	935	-116.2827778	32.77472222	12381	1.5326	17.704	116.72	-12944539.61	3865440.139	3773.7288
386	937	-116.2813889	32.77388889	12518	0.12085	18.023	116.53	-12944385	3865329.81	3815.4864
387	937	-116.28	32.77333333	12658	-0.7251	18.644	116.44	-12944230.39	3865256.257	3858.1584
388	938	-116.2786111	32.7725	12800	1.0492	18.776	116.5	-12944075.78	3865145.93	3901.44
389	939	-116.2772222	32.77194444	12944	2.7246	19.363	116.68	-12943921.17	3865072.378	3945.3312
390	941	-116.2758333	32.77138889	13089	2.4774	20.012	116.8	-12943766.55	3864998.827	3989.5272
391	941	-116.2744444	32.77055556	13237	2.2467	19.737	116.66	-12943611.94	3864888.502	4034.6376
392	942	-116.2730556	32.77	13383	3.5046	19.55	116.56	-12943457.34	3864814.952	4079.1384
393	943	-116.2716667	32.76916667	13527	3.175	19.281	116.67	-12943302.73	3864704.628	4123.0296
394	945	-116.2702778	32.76861111	13669	2.6093	19.248	116.67	-12943148.12	3864631.079	4166.3112
395	946	-116.2688889	32.76805556	13807	4.0704	17.847	116.52	-12942993.51	3864557.532	4208.3736
396	946	-116.2677778	32.76722222	13937	13.7	16.024	116.85	-12942869.82	3864447.209	4247.9976
397	947	-116.2663889	32.76666667	14056	20.127	14.87	118.05	-12942715.21	3864373.663	4284.2688
398	949	-116.265	32.76583333	14163	25.779	14.453	119.72	-12942560.6	3864263.343	4316.8824
399	950	-116.2636111	32.76527778	14261	27.559	14.063	121.45	-12942405.99	3864189.797	4346.7528
400	950	-116.2625	32.76444444	14352	27.471	13.145	122.62	-12942282.3	3864079.479	4374.4896
401	951	-116.2611111	32.76361111	14435	27.471	12.508	123.72	-12942127.69	3863969.162	4399.788
402	953	-116.26	32.76277778	14510	26.62	12.145	125.12	-12942004	3863858.847	4422.648
403	954	-116.2586111	32.76194444	14580	25.549	11.931	126.58	-12941849.39	3863748.531	4443.984
404	954	-116.2575	32.76111111	14645	25.263	11.706	127.96	-12941725.7	3863638.218	4463.796
405	955	-116.2561111	32.76027778	14706	25.67	11.288	129.36	-12941571.09	3863527.905	4482.3888
406	956	-116.255	32.75944444	14764	25.329	10.756	130.81	-12941447.4	3863417.592	4500.0672
407	958	-116.2538889	32.75833333	14817	26.208	10.184	132.21	-12941323.72	3863270.512	4516.2216
408	958	-116.2527778	32.7575	14865	26.647	9.6515	133.59	-12941200.03	3863160.203	4530.852
409	959	-116.2516667	32.75638889	14908	25.329	9.1791	135.03	-12941076.34	3863013.125	4543.9584
410	960	-116.2505556	32.75527778	14947	27.191	9.1846	136.65	-12940952.65	3862866.05	4555.8456
411	962	-116.2494444	32.75444444	14980	26.768	9.6405	138.76	-12940828.96	3862755.743	4565.904
412	962	-116.2483333	32.75333333	15012	27.422	10.14	140.72	-12940705.27	3862608.671	4575.6576
413	963	-116.2472222	32.75194444	15048	26.84	10.975	142.87	-12940581.58	3862424.833	4586.6304
414	964	-116.2463889	32.75083333	15087	25.549	11.772	144.77	-12940488.82	3862277.765	4598.5176
415	966	-116.2452778	32.74972222	15131	24.911	12.382	146.44	-12940365.13	3862130.698	4611.9288
416	967	-116.2444444	32.74861111	15181	24.835	12.909	148.06	-12940272.36	3861983.634	4627.1688
417	967	-116.2436111	32.74722222	15236	25.637	13.222	149.79	-12940179.6	3861799.805	4643.9328
418	968	-116.2427778	32.74611111	15294	25.477	13.458	151.57	-12940086.83	3861652.745	4661.6112
419	970	-116.2419444	32.74472222	15356	25.648	13.568	153.13	-12939994.06	3861468.921	4680.5088
420	971	-116.2411111	32.74361111	15420	25.532	13.87	154.74	-12939901.3	3861321.865	4700.016
421	971	-116.2405556	32.74222222	15485	26.224	14.42	156.54	-12939839.46	3861138.047	4719.828
422	972	-116.2397222	32.74083333	15554	26.158	14.919	158.42	-12939746.69	3860954.232	4740.8592
423	974	-116.2391667	32.73944444	15624	27.515	13.942	159.68	-12939684.85	3860770.419	4762.1952
424	975	-116.2386111	32.73833333	15692	28.658	10.684	159.82	-12939623	3860623.372	4782.9216
425	975	-116.2380556	32.73694444	15747	31.014	8.064	160.39	-12939561.16	3860439.564	4799.6856
426	976	-116.2375	32.73555556	15785	35.118	6.1029	161.31	-12939499.31	3860255.761	4811.268
427	977	-116.2369444	32.73416667	15806	37.326	5.1361	163.38	-12939437.46	3860071.96	4817.6688
428	979	-116.2363889	32.73277778	15813	38.128	5.0317	166.16	-12939375.62	3859888.161	4819.8024
429	979	-116.2361111	32.73138889	15812	38.864	4.4769	168.26	-12939344.7	3859704.365	4819.4976
430	980	-116.2355556	32.72972222	15803	38.562	4.0155	170.46	-12939282.86	3859483.814	4816.7544
431	981	-116.2352778	32.72833333	15788	38.029	3.8672	172.94	-12939251.94	3859300.024	4812.1824
432	983	-116.235	32.72694444	15770	39.359	4.0265	175.73	-12939221.01	3859116.238	4806.696
433	984	-116.2347222	32.72527778	15750	40.682	4.2188	178.87	-12939190.09	3858895.698	4800.6
434	984	-116.2347222	32.72388889	15730	40.803	4.1748	181.81	-12939190.09	3858711.918	4794.504
435	985	-116.2344444	32.72222222	15710	40.391	4.2737	184.6	-12939159.16	3858491.385	4788.408
436	987	-116.2344444	32.72083333	15692	40.413	4.4879	187.4	-12939159.16	3858307.611	4782.9216
437	988	-116.2347222	32.71916667	15675	36.068	5.0812	190.25	-12939190.09	3858087.087	4777.74
438	988	-116.2347222	32.7175	15665	20.555	6.5479	191.59	-12939190.09	3857866.566	4774.692
439	989	-116.235	32.71611111	15665	14.661	8.1409	190.5	-12939221.01	3857682.802	4774.692
440	991	-116.235	32.71444444	15675	10.519	5.5701	189.72	-12939221.01	3857462.288	4777.74
441	992	-116.2352778	32.71277778	15679	10.14	2.027	190.44	-12939251.94	3857241.78	4778.9592
442	992	-116.2355556	32.71138889	15667	11.168	-0.30762	190.83	-12939282.86	3857058.025	4775.3016
443	993	-116.2358333	32.70972222	15638	11.711	-0.30762	191.27	-12939313.77	3856837.523	4766.4624
444	994	-116.2361111	32.70833333	15598	11.953	-0.64819	191.73	-12939344.7	3856653.775	4754.2704
445	996	-116.2363889	32.70666667	15548	12.816	-1.6205	192.17	-12939375.62	3856433.282	4739.0304
446	996	-116.2366667	32.705	15491	14.079	-2.005	192.95	-12939406.55	3856212.791	4721.6568
447	997	-116.2369444	32.70333333	15427	16.271	-1.9446	193.91	-12939437.46	3855992.305	4702.1496
448	998	-116.2372222	32.70166667	15361	17.325	-1.1261	195.19	-12939468.39	3855771.825	4682.0328
449	1000	-116.2377778	32.7	15297	16.518	-0.67017	196.3	-12939530.24	3855551.347	4662.5256
450	1000	-116.2380556	32.69833333	15237	13.431	-0.54382	196.84	-12939561.16	3855330.873	4644.2376
451	1005	-116.24	32.69166667	15062	10.596	3.5541	199.83	-12939777.61	3854449.021	4590.8976
452	1009	-116.2422222	32.685	15164	-7.9376	14.859	199.45	-12940024.98	3853567.234	4621.9872
453	1013	-116.2441667	32.67861111	15655	-17.314	19.44	193.78	-12940241.44	3852722.25	4771.644
454	1017	-116.2455556	32.67222222	16255	-3.1201	17.1	192.7	-12940396.06	3851877.327	4954.524
455	1021	-116.2466667	32.66611111	16757	1.3843	15.76	192.48	-12940519.74	3851069.196	5107.5336
456	1025	-116.2477778	32.65972222	17159	-2.0325	10.695	192.13	-12940643.43	3850224.391	5230.0632
457	1029	-116.2491667	32.65361111	17401	-0.14832	8.1573	192.13	-12940798.04	3849416.373	5303.8248
458	1032	-116.2502778	32.64722222	17519	-0.77454	6.8994	192.02	-12940921.73	3848571.686	5339.7912
459	1036	-116.2513889	32.64083333	17591	-0.0604	8.2288	191.97	-12941045.42	3847727.059	5361.7368
460	1040	-116.2527778	32.63416667	17708	-4.3396	7.5037	190.94	-12941200.03	3846845.774	5397.3984
461	1044	-116.2538889	32.62777778	17834	-3.9771	9.3658	189.59	-12941323.72	3846001.271	5435.8032
462	1048	-116.2547222	32.62111111	18022	-11.481	10.662	186.56	-12941416.48	3845120.114	5493.1056
463	1052	-116.2555556	32.61444444	18246	-7.8937	10.184	184.86	-12941509.25	3844239.022	5561.3808
464	1056	-116.2561111	32.60777778	18470	-4.2352	9.4043	182.85	-12941571.09	3843357.998	5629.656
465	1060	-116.2563889	32.60111111	18669	0	10.816	182.53	-12941602.01	3842477.037	5690.3112
466	1064	-116.2566667	32.59444444	18893	-0.87341	11.03	181.98	-12941632.94	3841596.143	5758.5864
467	1068	-116.2569444	32.58777778	19030	1.582	6.004	182.03	-12941663.85	3840715.315	5800.344
468	1072	-116.2572222	32.58083333	19111	3.8617	9.4757	182.93	-12941694.78	3839797.854	5825.0328
469	1076	-116.2577778	32.57416667	19295	0.7196	10.646	183.12	-12941756.63	3838917.16	5881.116
470	1081	-116.2580556	32.56722222	19516	-0.23621	7.4323	182.36	-12941787.55	3837999.838	5948.4768
471	1085	-116.2586111	32.56027778	19636	-12.563	5.1691	180.92	-12941849.39	3837082.588	5985.0528
472	1089	-116.2588889	32.55305556	19672	0.45044	5.4712	180.73	-12941880.31	3836128.724	5996.0256
473	1093	-116.2588889	32.54583333	19691	0.54382	4.1693	180.92	-12941880.31	3835174.935	6001.8168
474	1097	-116.2591667	32.53861111	19679	3.3398	4.021	181.02	-12941911.24	3834221.224	5998.1592
475	1101	-116.2597222	32.53111111	19668	22.434	3.9771	186.6	-12941973.08	3833230.912	5994.8064
476	1105	-116.2608333	32.52361111	19674	32.767	4.9548	192.58	-12942096.76	3832240.684	5996.6352
477	1109	-116.2627778	32.51611111	19722	47.109	6.5808	205.09	-12942313.22	3831250.538	6011.2656
478	1112	-116.2661111	32.50944444	19818	50.614	6.6412	218.39	-12942684.28	3830370.477	6040.5264
479	1116	-116.2708333	32.50361111	19883	59.189	3.8177	229.96	-12943209.96	3829600.478	6060.3384
480	1120	-116.2769444	32.49888889	19854	61.743	2.6642	248.03	-12943890.24	3828977.182	6051.4992
481	1124	-116.2838889	32.49638889	19743	62.639	0.49988	265.37	-12944663.3	3828647.215	6017.6664
482	1128	-116.2911111	32.49583333	19541	62.617	-1.4612	280.8	-12945467.27	3828573.89	5956.0968
483	1132	-116.2983333	32.49722222	19253	59.568	-2.807	297.33	-12946271.24	3828757.203	5868.3144
484	1136	-116.305	32.50083333	18914	55.651	-2.6752	312.42	-12947013.38	3829233.829	5764.9872
485	1140	-116.3105556	32.50611111	18596	51.4	-1.8732	326.89	-12947631.82	3829930.472	5668.0608
486	1144	-116.3144444	32.51277778	18325	50.405	0.21423	341.46	-12948064.72	3830810.5	5585.46
487	1148	-116.3166667	32.52	18224	35.519	6.5588	354.85	-12948312.11	3831763.937	5554.6752
488	1152	-116.3172222	32.52777778	18436	15.304	11.234	0.0989	-12948373.95	3832790.801	5619.2928
489	1157	-116.3172222	32.53527778	18808	5.4602	11.475	0.68115	-12948373.95	3833781.076	5732.6784
490	1161	-116.3169444	32.54277778	19184	5.202	12.068	2.2797	-12948343.02	3834771.433	5847.2832
491	1165	-116.3166667	32.55	19530	6.0425	9.0253	3.2574	-12948312.11	3835725.188	5952.744
492	1169	-116.3163889	32.5575	19791	9.1681	8.7177	4.7406	-12948281.18	3836715.708	6032.2968
493	1173	-116.3158333	32.56472222	20029	24.994	7.597	8.1519	-12948219.33	3837669.619	6104.8392
494	1177	-116.3147222	32.57222222	20224	12.579	8.4869	12.931	-12948095.65	3838660.302	6164.2752
495	1181	-116.3136111	32.57944444	20410	-63.759	3.9276	0.86792	-12947971.96	3839614.37	6220.968
496	1185	-116.3138889	32.58694444	20387	-60.172	-0.2417	349.85	-12948002.88	3840605.215	6213.9576
497	1188	-116.3155556	32.59444444	20175	-50.499	-1.4557	337.65	-12948188.42	3841596.143	6149.34
498	1192	-116.3188889	32.60138889	19939	-15.282	0.12085	330.81	-12948559.48	3842513.743	6077.4072
499	1196	-116.3225	32.60833333	19786	0.45044	0.97778	332.01	-12948961.47	3843431.413	6030.7728
500	1200	-116.3263889	32.61527778	19687	-1.4996	0.54382	331.51	-12949394.38	3844349.156	6000.5976
501	1204	-116.3305556	32.6225	19592	1.1371	0.91187	331.46	-12949858.21	3845303.683	5971.6416
502	1208	-116.3347222	32.62972222	19468	0	-1.1865	331.28	-12950322.04	3846258.287	5933.8464
503	1212	-116.3388889	32.63694444	19284	1.7633	-0.87341	331.29	-12950785.87	3847212.968	5877.7632
504	1216	-116.3430556	32.64444444	19106	0.15381	-1.0272	331.48	-12951249.71	3848204.449	5823.5088
505	1220	-116.3472222	32.65222222	18921	0.53833	-0.87891	331.2	-12951713.53	3849232.74	5767.1208
506	1224	-116.3516667	32.65972222	18745	0.26917	-0.79102	331	-12952208.29	3850224.391	5713.476
507	1228	-116.3558333	32.6675	18585	2.1149	-0.0604	331.23	-12952672.11	3851252.857	5664.708
508	1233	-116.36	32.67555556	18478	56.508	1.5491	340.96	-12953135.95	3852318.149	5632.0944
509	1237	-116.3625	32.68388889	18380	66.248	0.21973	357.91	-12953414.25	3853420.276	5602.224
510	1241	-116.3622222	32.6925	18271	56.261	2.384	14.947	-12953383.32	3854559.249	5569.0008
511	1245	-116.3594444	32.70083333	18244	62.672	3.0817	31.536	-12953074.1	3855661.584	5560.7712
512	1249	-116.3544444	32.7075	18220	71.312	2.1643	55.613	-12952517.5	3856543.528	5553.456
513	1253	-116.3472222	32.71194444	18152	71.285	0.67017	78.344	-12951713.53	3857131.526	5532.7296
514	1254	-116.3452778	32.7125	18124	64.66	0.20874	81.332	-12951497.08	3857205.028	5524.1952
515	1254	-116.3430556	32.71277778	18090	62.825	0.18127	84.326	-12951249.71	3857241.78	5513.832
516	1255	-116.3411111	32.71305556	18051	60.875	-0.39001	87.852	-12951033.25	3857278.531	5501.9448
517	1257	-116.3391667	32.71305556	18007	59.859	-0.57678	91.071	-12950816.8	3857278.531	5488.5336
518	1258	-116.3369444	32.71333333	17960	56.602	-0.75256	94.351	-12950569.41	3857315.282	5474.208
519	1258	-116.335	32.71305556	17909	50.768	-1.181	96.158	-12950352.96	3857278.531	5458.6632
520	1259	-116.3327778	32.71277778	17855	42.748	-1.5051	97.592	-12950105.59	3857241.78	5442.204
521	1261	-116.3305556	32.7125	17801	15.672	-0.93384	98.421	-12949858.21	3857205.028	5425.7448
522	1262	-116.3286111	32.71222222	17751	6.2238	-0.30762	97.405	-12949641.75	3857168.277	5410.5048
523	1262	-116.3263889	32.71194444	17707	5.5151	-0.26917	97.614	-12949394.38	3857131.526	5397.0936
524	1263	-116.3241667	32.71166667	17667	6.0645	-0.20874	98.119	-12949147	3857094.776	5384.9016
525	1264	-116.3222222	32.71138889	17630	2.1039	0	98.102	-12948930.54	3857058.025	5373.624
526	1266	-116.32	32.71111111	17598	-0.23621	1.8127	98.004	-12948683.17	3857021.274	5363.8704
527	1266	-116.3177778	32.71055556	17578	0.39551	1.203	97.795	-12948435.79	3856947.774	5357.7744
528	1267	-116.3155556	32.71027778	17564	1.0547	2.016	97.921	-12948188.42	3856911.024	5353.5072
529	1268	-116.3133333	32.71	17556	1.5161	2.2412	97.949	-12947941.04	3856874.273	5351.0688
530	1270	-116.3111111	32.70972222	17554	0.81299	2.384	97.987	-12947693.66	3856837.523	5350.4592
531	1271	-116.3091667	32.70916667	17556	1.1975	2.3566	98.02	-12947477.21	3856764.024	5351.0688
532	1271	-116.3069444	32.70888889	17559	1.2744	2.1918	98.047	-12947229.83	3856727.274	5351.9832
533	1272	-116.3047222	32.70861111	17562	0.42847	2.1643	98.064	-12946982.45	3856690.525	5352.8976
534	1274	-116.3025	32.70805556	17566	-5.7953	2.8015	97.943	-12946735.08	3856617.027	5354.1168
535	1278	-116.2933333	32.70722222	17642	-67.374	4.9988	81.964	-12945714.65	3856506.779	5377.2816
536	1282	-116.285	32.70916667	17819	-53.707	13.03	52.218	-12944786.99	3856764.024	5431.2312
537	1285	-116.2791667	32.71416667	18432	-54.201	23.593	27.675	-12944137.63	3857425.537	5618.0736
538	1289	-116.2761111	32.72027778	19320	-70.807	22.753	7.7838	-12943797.48	3858234.103	5888.736
539	1293	-116.2752778	32.72666667	20102	-85.963	15.98	344.53	-12943704.72	3859079.482	6127.0896
540	1296	-116.2766667	32.73138889	20468	-88.028	8.7836	327.67	-12943859.33	3859704.365	6238.6464
541	1297	-116.2772222	32.73305556	20537	-90.61	5.4272	323.65	-12943921.17	3859924.921	6259.6776
542	1299	-116.2783333	32.73444444	20575	-90.807	1.4008	323.39	-12944044.85	3860108.719	6271.26
543	1300	-116.2791667	32.73555556	20580	-85.836	-2.1863	320.48	-12944137.63	3860255.761	6272.784
544	1300	-116.28	32.73694444	20554	-75.009	-4.1583	318.75	-12944230.39	3860439.564	6264.8592
545	1301	-116.2813889	32.73833333	20495	-64.336	-6.9818	319.16	-12944385	3860623.372	6246.876
546	1302	-116.2825	32.73972222	20410	-45.709	-7.998	316.9	-12944508.69	3860807.182	6220.968
547	1304	-116.2836111	32.74111111	20307	-28.295	-6.8994	315.23	-12944632.38	3860990.995	6189.5736
548	1304	-116.2847222	32.74222222	20194	13.101	-4.9713	316.05	-12944756.06	3861138.047	6155.1312
549	1305	-116.2861111	32.74361111	20081	54.355	-0.26917	326.5	-12944910.67	3861321.865	6120.6888
550	1306	-116.2872222	32.745	19982	68.06	-2.6532	339.21	-12945034.36	3861505.686	6090.5136
551	1308	-116.2880556	32.74666667	19891	70.95	-3.7958	349.62	-12945127.13	3861726.275	6062.7768
552	1312	-116.2888889	32.75305556	19561	63.77	0.89539	26.175	-12945219.9	3862571.904	5962.1928
553	1316	-116.2863889	32.75861111	19429	38.254	13.694	46.302	-12944941.6	3863307.282	5921.9592
554	1320	-116.2822222	32.7625	19642	51.372	18.138	65.215	-12944477.76	3863822.075	5986.8816
555	1323	-116.2775	32.76472222	19970	65.484	16.88	91.615	-12943952.09	3864116.251	6086.856
556	1327	-116.2727778	32.76472222	20195	69.131	9.7723	113.02	-12943426.42	3864116.251	6155.436
557	1331	-116.2683333	32.76277778	20225	46.027	7.2839	128.35	-12942931.66	3863858.847	6164.58
558	1335	-116.2641667	32.76	20111	47.417	2.6477	138.83	-12942467.83	3863491.134	6129.8328
559	1339	-116.2608333	32.75611111	19843	25.834	-0.11536	143.05	-12942096.76	3862976.356	6048.1464
560	1343	-116.2572222	32.75166667	19549	12.409	5.3723	146.04	-12941694.78	3862388.067	5958.5352
561	1347	-116.2538889	32.74694444	19463	-63.699	4.054	124.45	-12941323.72	3861763.039	5932.3224
562	1351	-116.2491667	32.74361111	19336	-72.186	-0.42297	96.29	-12940798.04	3861321.865	5893.6128
563	1355	-116.2436111	32.74277778	18996	-76.256	-9.9481	76.278	-12940179.6	3861211.574	5789.9808
564	1359	-116.2380556	32.74388889	18280	-71.873	-22.115	52.894	-12939561.16	3861358.629	5571.744
565	1363	-116.2344444	32.74611111	17506	-59.453	-22.549	31.904	-12939159.16	3861652.745	5335.8288
566	1363	-116.2336111	32.74722222	17232	-53.295	-20.627	25.34	-12939066.4	3861799.805	5252.3136
567	1364	-116.2325	32.74861111	16949	-56.728	-22.28	23.659	-12938942.71	3861983.634	5166.0552
568	1365	-116.2319444	32.75	16672	-53.168	-21.808	17.803	-12938880.86	3862167.465	5081.6256
569	1367	-116.2311111	32.75138889	16392	-43.275	-20.374	12.431	-12938788.1	3862351.299	4996.2816
570	1368	-116.2305556	32.75305556	16121	-37.106	-17.457	10.206	-12938726.26	3862571.904	4913.6808
571	1368	-116.23	32.75472222	15862	-37.403	-16.397	7.5861	-12938664.41	3862792.512	4834.7376
572	1369	-116.2297222	32.75638889	15613	-45.038	-16.699	3.0157	-12938633.49	3863013.125	4758.8424
573	1371	-116.2294444	32.75805556	15371	-41.946	-14.222	356.6	-12938602.57	3863233.743	4685.0808
574	1372	-116.2294444	32.76	15151	-14.139	-8.7067	356.07	-12938602.57	3863491.134	4618.0248
575	1372	-116.2294444	32.76194444	14974	-4.6582	-4.3506	358.02	-12938602.57	3863748.531	4564.0752
576	1373	-116.2291667	32.76388889	14844	-3.3124	-0.66467	356.97	-12938571.65	3864005.935	4524.4512
577	1375	-116.2294444	32.76583333	14762	-0.0604	2.7466	356.85	-12938602.57	3864263.343	4499.4576
578	1376	-116.2294444	32.76805556	14728	1.7633	5.6744	357.33	-12938602.57	3864557.532	4489.0944
579	1376	-116.2294444	32.77	14738	1.6534	10.712	357.65	-12938602.57	3864814.952	4492.1424
580	1377	-116.2294444	32.77222222	14803	1.6919	13.134	357.18	-12938602.57	3865109.153	4511.9544
581	1379	-116.2294444	32.77416667	14912	2.1918	14.156	357.36	-12938602.57	3865366.587	4545.1776
582	1380	-116.2294444	32.77611111	15044	1.0547	14.376	357.42	-12938602.57	3865624.025	4585.4112
583	1380	-116.2294444	32.77805556	15190	7.9596	12.03	357.58	-12938602.57	3865881.469	4629.912
584	1381	-116.2294444	32.78027778	15328	14.293	10.426	358.41	-12938602.57	3866175.698	4671.9744
585	1385	-116.2291667	32.78861111	15785	15.397	9.2615	0.83496	-12938571.65	3867279.12	4811.268
586	1389	-116.2288889	32.79722222	16173	2.818	7.2455	1.9391	-12938540.73	3868419.432	4929.5304
587	1393	-116.2283333	32.80611111	16464	-26.472	6.059	0.15381	-12938478.88	3869596.644	5018.2272
588	1397	-116.2291667	32.815	16785	-62.88	10.47	337.74	-12938571.65	3870773.974	5116.068
589	1401	-116.2330556	32.82277778	17300	-62.353	14.689	313.32	-12939004.56	3871804.234	5273.04
590	1406	-116.2397222	32.82805556	17983	-71.494	14.052	289.15	-12939746.69	3872503.391	5481.2184
591	1410	-116.2475	32.83027778	18615	-68.247	14.908	266.28	-12940612.51	3872797.785	5673.852
592	1411	-116.2513889	32.83	18926	-67.028	15.765	254.02	-12941045.42	3872760.985	5768.6448
593	1413	-116.2533333	32.82972222	19085	-66.154	16.194	248.63	-12941261.87	3872724.185	5817.108
594	1414	-116.2552778	32.82888889	19245	-67.192	15.991	243.83	-12941478.33	3872613.788	5865.876
595	1414	-116.2569444	32.82833333	19403	-63.858	16.046	238.73	-12941663.85	3872540.189	5914.0344
596	1415	-116.2588889	32.8275	19562	-44.89	17.078	237.27	-12941880.31	3872429.793	5962.4976
597	1417	-116.2605556	32.82638889	19727	-34.794	19.292	236	-12942065.85	3872282.6	6012.7896
598	1418	-116.2622222	32.82527778	19912	-45.736	18.858	234.04	-12942251.37	3872135.409	6069.1776
599	1418	-116.2636111	32.82416667	20087	-65.759	17.067	229.13	-12942405.99	3871988.219	6122.5176
600	1419	-116.2652778	32.82305556	20253	-71.719	14.766	224.39	-12942591.52	3871841.031	6173.1144
601	1420	-116.2666667	32.82166667	20403	-54.651	11.893	226.88	-12942746.13	3871657.049	6218.8344
602	1422	-116.2680556	32.82055556	20531	-33.558	10.113	227.66	-12942900.74	3871509.865	6257.8488
603	1422	-116.2694444	32.81916667	20637	-10.129	8.1903	226.96	-12943055.35	3871325.888	6290.1576
604	1423	-116.2708333	32.81777778	20722	-16.43	8.5583	226.03	-12943209.96	3871141.914	6316.0656
605	1424	-116.2722222	32.81638889	20798	-16.271	9.7174	225.15	-12943364.57	3870957.942	6339.2304
606	1426	-116.2736111	32.815	20877	-28.218	12.173	221.83	-12943519.18	3870773.974	6363.3096
607	1427	-116.275	32.81361111	20965	-34.733	11.497	220.31	-12943673.79	3870590.008	6390.132
608	1427	-116.2763889	32.81222222	21057	-29.405	9.256	219.68	-12943828.4	3870406.045	6418.1736
609	1428	-116.2777778	32.81055556	21141	-20.572	9.8328	219.25	-12943983.02	3870185.295	6443.7768
610	1430	-116.2788889	32.80888889	21219	-80.42	9.0692	214.39	-12944106.7	3869964.547	6467.5512
611	1431	-116.2802778	32.8075	21281	-74.372	4.7186	206.73	-12944261.31	3869780.594	6486.4488
612	1431	-116.2811111	32.80555556	21326	-71.609	5.0427	201.08	-12944354.08	3869523.065	6500.1648
613	1432	-116.2822222	32.80388889	21365	-16.655	8.4869	199.93	-12944477.76	3869302.33	6512.052
614	1434	-116.2830556	32.80194444	21417	35.239	9.3823	210.59	-12944570.54	3869044.811	6527.9016
615	1435	-116.2838889	32.80027778	21478	13.629	6.2897	209.6	-12944663.3	3868824.086	6546.4944
616	1439	-116.2880556	32.79305556	21722	0.86243	9.7943	209.39	-12945127.13	3867867.655	6620.8656
617	1443	-116.2925	32.78583333	22070	12.843	9.5746	212.39	-12945621.88	3866911.301	6726.936
618	1447	-116.2972222	32.77888889	22535	60.727	17.238	230.16	-12946147.56	3865991.804	6868.668
619	1451	-116.3036111	32.77416667	23124	61.144	16.688	253.38	-12946858.77	3865366.587	7048.1952
620	1455	-116.3108333	32.77166667	23784	-46.318	25.681	247.14	-12947662.74	3865035.603	7249.3632
621	1458	-116.3172222	32.76833333	24463	-71.565	16.71	222.27	-12948373.95	3864594.305	7456.3224
622	1462	-116.3222222	32.76361111	24857	-87.451	5.191	206.97	-12948930.54	3863969.162	7576.4136
623	1466	-116.3258333	32.7575	24839	-79.552	-3.587	190.67	-12949332.53	3863160.203	7570.9272
624	1470	-116.3277778	32.75083333	24472	-47.23	-3.7903	178.91	-12949548.99	3862277.765	7459.0656
625	1474	-116.3280556	32.74333333	24075	-20.089	-0.98328	173.45	-12949579.91	3861285.101	7338.06
626	1478	-116.3277778	32.73583333	23763	-9.5197	-0.0275	171.57	-12949548.99	3860292.521	7242.9624
627	1482	-116.3272222	32.72833333	23536	41.462	4.9109	180.41	-12949487.14	3859300.024	7173.7728
628	1486	-116.3277778	32.72111111	23448	58.326	4.1473	200.43	-12949548.99	3858344.366	7146.9504
629	1490	-116.3305556	32.71472222	23363	66.473	1.6644	220.34	-12949858.21	3857499.04	7121.0424
630	1494	-116.3352778	32.70944444	23182	59.453	0.68665	240.28	-12950383.89	3856800.773	7065.8736
631	1498	-116.3411111	32.70611111	22946	53.784	0.033	255.92	-12951033.25	3856359.784	6993.9408
632	1503	-116.3472222	32.70472222	22668	55.042	-1.17	272.8	-12951713.53	3856176.043	6909.2064
633	1507	-116.3536111	32.70472222	22285	61.249	-6.9434	287.09	-12952424.74	3856176.043	6792.468
634	1511	-116.36	32.70611111	21784	-0.87341	-2.2687	285.4	-12953135.95	3856359.784	6639.7632
635	1515	-116.3663889	32.70777778	21418	-14.282	-0.11536	284.71	-12953847.16	3856580.277	6528.2064
636	1519	-116.3730556	32.70944444	21163	-7.9266	1.2854	281.31	-12954589.29	3856800.773	6450.4824
637	1523	-116.38	32.71055556	20974	6.048	1.582	282.39	-12955362.34	3856947.774	6392.8752
638	1527	-116.3869444	32.71194444	20842	4.2462	1.6425	283.72	-12956135.39	3857131.526	6352.6416
639	1531	-116.3938889	32.71333333	20719	0.0275	1.17	283.6	-12956908.44	3857315.282	6315.1512
640	1534	-116.4008333	32.715	20598	-0.11536	1.9446	283.58	-12957681.49	3857535.792	6278.2704
